City_ID,City,Lat,Lng,Max Temp,Humidity,Cloudiness,Wind Speed,Country,Date
0,taber,49.8167,-112.1518,-9.989999999999952,89,100,1.03,CA,1707157952
1,al jawf,29.5,38.75,11.210000000000036,37,0,1.85,SA,1707157952
2,adamstown,-25.066,-130.1015,23.53000000000003,85,100,7.45,PN,1707157952
3,college,64.8569,-147.8028,-23.079999999999984,74,20,0.0,US,1707157952
4,grytviken,-54.2811,-36.5092,8.379999999999995,64,64,5.63,GS,1707157952
5,igarka,67.4667,86.5833,-24.319999999999965,98,36,2.67,RU,1707157953
6,waitangi,-43.9535,-176.5597,17.680000000000007,93,98,2.24,NZ,1707157953
7,talnakh,69.4865,88.3972,-22.579999999999984,90,100,2.71,RU,1707157953
8,nueva gerona,21.8833,-82.8,24.29000000000002,58,13,13.68,CU,1707157953
9,saint-philippe,-21.3585,55.7679,23.77000000000004,74,64,4.25,RE,1707157954
10,hammerfest,70.6634,23.6821,-5.75,63,0,4.12,NO,1707157954
11,iskateley,67.6803,53.1512,-18.879999999999967,97,100,1.79,RU,1707157955
12,blackmans bay,-43.0167,147.3167,11.07000000000005,76,39,1.79,AU,1707157955
13,yibin,28.7667,104.6238,7.990000000000009,82,100,0.69,CN,1707157955
14,port-aux-francais,-49.35,70.2167,6.020000000000039,84,99,13.0,TF,1707157955
15,kampong thom,12.7111,104.8887,26.760000000000048,61,0,2.55,KH,1707157956
16,puerto natales,-51.7236,-72.4875,15.25,44,40,10.29,CL,1707157956
17,point pedro,9.8167,80.2333,25.600000000000023,74,4,5.51,LK,1707157956
18,lysyye gory,51.5506,44.8414,0.3100000000000023,99,100,5.96,RU,1707157956
19,hawaiian paradise park,19.5933,-154.9731,19.390000000000043,95,100,3.09,US,1707157956
20,cabedelo,-6.9811,-34.8339,32.370000000000005,65,85,5.45,BR,1707157956
21,bilibino,68.0546,166.4372,-23.93999999999997,100,98,1.78,RU,1707157957
22,ust-nera,64.5667,143.2,-27.799999999999983,85,100,0.58,RU,1707157957
23,fale old settlement,-9.3852,-171.2468,29.400000000000034,76,100,10.78,TK,1707157957
24,iqaluit,63.7506,-68.5145,-20.149999999999977,77,100,0.0,CA,1707157812
25,port alfred,-33.5906,26.891,20.100000000000023,97,0,1.39,ZA,1707157957
26,kodiak,57.79,-152.4072,0.7300000000000182,93,100,3.09,US,1707157957
27,ixtapa,20.7,-105.2,24.57000000000005,47,0,1.54,MX,1707157957
28,thompson,55.7435,-97.8558,-1.9099999999999682,93,100,1.03,CA,1707157958
29,west end,26.6833,-78.9667,18.99000000000001,55,100,3.28,BS,1707157958
30,monrovia,6.3005,-10.7969,29.870000000000005,79,8,4.34,LR,1707157958
31,vila franca do campo,37.7167,-25.4333,18.27000000000004,99,77,5.49,PT,1707157958
32,emerald,-23.5333,148.1667,23.52000000000004,82,85,4.5,AU,1707157958
33,puerto ayora,-0.7393,-90.3518,27.980000000000018,90,36,3.13,EC,1707157888
34,ancud,-41.8697,-73.8203,17.510000000000048,78,82,6.74,CL,1707157959
35,evanston,42.0411,-87.6901,5.660000000000025,79,75,5.14,US,1707157956
36,mount pearl,47.5166,-52.7813,2.400000000000034,96,100,5.14,CA,1707157959
37,tiksi,71.6872,128.8694,-33.66999999999999,99,52,0.9,RU,1707157959
38,ayas,40.0193,32.3322,7.260000000000048,84,100,1.75,TR,1707157959
39,wailua homesteads,22.0669,-159.378,22.08000000000004,69,100,11.32,US,1707157960
40,polyarnyy,69.1989,33.4478,-19.539999999999964,100,99,2.23,RU,1707157960
41,zhaqsy,51.9083,67.3133,-1.169999999999959,95,100,9.9,KZ,1707157960
42,ilulissat,69.2167,-51.1,-20.98999999999998,54,20,5.66,GL,1707157960
43,isafjordur,66.0755,-23.124,-6.979999999999961,68,75,7.2,IS,1707157960
44,new norfolk,-42.7826,147.0587,11.720000000000027,78,93,1.22,AU,1707157960
45,kamaishi,39.2667,141.8833,0.10000000000002274,76,100,4.35,JP,1707157961
46,hithadhoo,-0.6,73.0833,28.120000000000005,77,100,2.86,MV,1707157961
47,auki,-8.7676,160.7034,26.78000000000003,88,100,5.05,SB,1707157961
48,zaysan,47.4667,84.8667,-13.949999999999989,82,31,1.49,KZ,1707157961
49,bethel,41.3712,-73.414,7.53000000000003,44,0,3.6,US,1707157961
50,ugoofaaru,5.6667,73.0,27.720000000000027,76,9,6.48,MV,1707157962
51,tazovsky,67.4667,78.7,-24.95999999999998,100,41,3.56,RU,1707157956
52,ghat,24.9647,10.1728,13.78000000000003,30,0,3.05,LY,1707157962
53,karratha,-20.7377,116.8463,27.879999999999995,62,24,2.33,AU,1707157894
54,smithers,54.7804,-127.1743,-12.819999999999993,92,40,1.03,CA,1707157783
55,timaru,-44.4,171.25,19.480000000000018,33,100,2.24,NZ,1707157748
56,longyearbyen,78.2186,15.6401,-3.089999999999975,68,75,3.6,SJ,1707157729
57,craig,40.5153,-107.5464,-0.029999999999972715,64,100,1.84,US,1707157962
58,essaouira,31.5125,-9.77,20.720000000000027,37,40,2.06,MA,1707157962
59,invercargill,-46.4,168.35,20.010000000000048,67,100,5.81,NZ,1707157962
60,newport,51.5877,-2.9984,11.57000000000005,87,100,9.92,GB,1707157963
61,edinburgh of the seven seas,-37.0676,-12.3116,15.870000000000005,63,2,2.73,SH,1707157963
62,illapel,-31.6308,-71.1653,29.53000000000003,44,0,4.6,CL,1707157963
63,merizo village,13.2658,144.6691,26.310000000000002,72,100,8.84,GU,1707157963
64,albany,42.6001,-73.9662,3.4700000000000273,48,2,1.79,US,1707157825
65,fate,32.9415,-96.3814,15.5,65,0,5.14,US,1707157805
66,ceeldheer,3.8488,47.1806,27.180000000000007,60,99,7.27,SO,1707157963
67,buka,40.8108,69.1986,5.970000000000027,41,100,2.16,UZ,1707157963
68,tolanaro,-25.0319,46.9987,24.04000000000002,88,75,9.26,MG,1707157964
69,olonkinbyen,70.9221,-8.7187,-1.0600000000000023,95,100,9.88,SJ,1707157964
70,port elizabeth,-33.918,25.5701,21.840000000000032,92,100,3.6,ZA,1707157964
71,bubaque,11.2833,-15.8333,26.74000000000001,75,0,6.75,GW,1707157964
72,susuman,62.7833,148.1667,-28.899999999999977,89,100,1.34,RU,1707157964
73,vernon,50.2581,-119.2691,1.5300000000000296,84,100,0.51,CA,1707157964
74,antsiranana,-12.2787,49.2917,24.79000000000002,93,31,2.42,MG,1707157965
75,qinzhou,21.95,108.6167,14.29000000000002,89,100,2.46,CN,1707157965
76,hirara,24.8,125.2833,17.920000000000016,82,100,9.26,JP,1707157965
77,punta arenas,-53.15,-70.9167,14.060000000000002,47,20,12.86,CL,1707157768
78,nishinoomote,30.7333,131.0,14.720000000000027,70,0,11.73,JP,1707157965
79,sandnessjoen,66.0217,12.6316,-3.9399999999999977,93,40,2.06,NO,1707157965
80,moab,38.5733,-109.5498,8.03000000000003,32,15,2.75,US,1707157955
81,abu zabad,12.35,29.25,21.210000000000036,16,9,7.61,SD,1707157965
82,grand-lahou,5.1367,-5.0242,28.120000000000005,77,2,4.27,CI,1707157965
83,zheleznogorsk-ilimskiy,56.5768,104.1217,-8.129999999999995,87,100,3.58,RU,1707157966
84,utrik,11.2278,169.8474,26.410000000000025,82,14,8.86,MH,1707157960
85,queenstown,-31.8976,26.8753,20.5,71,2,2.05,ZA,1707157966
86,bredasdorp,-34.5322,20.0403,22.620000000000005,71,0,3.4,ZA,1707157966
87,kidal,18.4411,1.4078,20.060000000000002,12,100,4.73,ML,1707157966
88,port lincoln,-34.7333,135.8667,14.670000000000016,67,0,5.07,AU,1707157965
89,punta del este,-34.9667,-54.95,29.060000000000002,71,75,7.72,UY,1707157967
90,ribeira grande,38.5167,-28.7,18.220000000000027,94,75,8.05,PT,1707157967
91,hilo,19.7297,-155.09,20.710000000000036,95,100,3.09,US,1707157775
92,margaret river,-33.95,115.0667,13.460000000000036,86,83,5.39,AU,1707157967
93,dukhan,25.4297,50.7858,17.730000000000018,60,99,4.77,QA,1707157967
94,marmolejo,38.0455,-4.1703,15.760000000000048,57,100,1.17,ES,1707157968
95,pandan,14.0453,124.1694,25.170000000000016,89,75,5.17,PH,1707157968
96,oyonnax,46.2592,5.6573,4.230000000000018,77,7,0.48,FR,1707157968
97,giado,31.9582,12.0203,12.460000000000036,41,0,1.57,LY,1707157969
98,shuangyashan,46.6361,131.1539,-21.47999999999999,93,45,2.34,CN,1707157969
99,asha,54.9973,57.2722,-1.009999999999991,95,100,4.47,RU,1707157969
100,theodore,30.5477,-88.1753,11.930000000000007,82,100,6.69,US,1707157969
101,paraiso,9.8383,-83.8656,27.27000000000004,35,6,3.02,CR,1707157969
102,petropavlovsk-kamchatsky,53.0452,158.6483,-11.669999999999959,77,75,4.02,RU,1707157969
103,harper,4.375,-7.7169,28.05000000000001,76,12,4.56,LR,1707157969
104,dudinka,69.4058,86.1778,-16.849999999999966,90,96,4.02,RU,1707157970
105,lompoc,34.6391,-120.4579,16.400000000000034,64,100,3.09,US,1707157970
106,dabat,12.9842,37.765,14.050000000000011,46,4,2.34,ET,1707157970
107,vila velha,-20.3297,-40.2925,29.970000000000027,78,20,6.69,BR,1707157970
108,sisimiut,66.9395,-53.6735,-18.569999999999965,77,2,5.87,GL,1707157971
109,rio rico,31.4715,-110.9765,20.170000000000016,34,0,0.0,US,1707157971
110,xining,36.6167,101.7667,-8.17999999999995,93,100,0.48,CN,1707157971
111,rudnya,54.947,31.0934,-7.3700000000000045,96,11,3.36,RU,1707157971
112,verkhnevilyuysk,63.4453,120.3167,-36.00999999999999,100,84,0.77,RU,1707157971
113,uliastay,47.7417,96.8444,-20.889999999999986,67,100,2.82,MN,1707157971
114,gadzhiyevo,69.2551,33.3362,-19.159999999999968,100,98,2.49,RU,1707157955
115,qaqortoq,60.7167,-46.0333,-18.659999999999968,70,0,2.11,GL,1707157972
116,cooper's town,26.8667,-77.5167,21.840000000000032,50,100,2.23,BS,1707157972
117,vilyuchinsk,52.9306,158.4028,-10.849999999999966,80,75,4.38,RU,1707157973
118,atafu village,-8.5421,-172.5159,28.430000000000007,80,100,11.29,TK,1707157973
119,yuzhno-kurilsk,44.0306,145.8556,-5.899999999999977,60,51,8.4,RU,1707157973
120,papatowai,-46.5619,169.4708,18.600000000000023,62,100,4.63,NZ,1707157974
121,mossel bay,-34.1831,22.146,22.960000000000036,89,23,3.6,ZA,1707157974
122,camberley,51.3371,-0.7426,11.590000000000032,74,75,7.72,GB,1707157974
123,neelankarai,12.9455,80.2575,27.260000000000048,74,20,1.54,IN,1707157975
124,jamestown,42.097,-79.2353,1.400000000000034,85,100,4.63,US,1707157833
125,yellowknife,62.456,-114.3525,-21.98999999999998,82,20,3.09,CA,1707157975
126,hadibu,12.65,54.0333,25.910000000000025,73,5,4.38,YE,1707157975
127,borgarnes,64.5383,-21.9206,-4.96999999999997,83,4,5.26,IS,1707157976
128,seven pagodas,12.6264,80.1722,27.27000000000004,78,0,3.14,IN,1707157976
129,escanaba,45.7453,-87.0646,7.360000000000014,81,0,2.06,US,1707157745
130,leksand,60.7339,15.0032,-5.189999999999998,98,12,0.74,SE,1707157976
131,novodvinsk,64.4165,40.8122,-20.67999999999998,99,74,2.01,RU,1707157977
132,khandyga,62.6667,135.6,-44.51999999999998,100,66,1.24,RU,1707157977
133,ketchikan,55.3422,-131.6461,3.2600000000000477,75,40,4.63,US,1707157977
134,cambria,35.5641,-121.0808,15.620000000000005,89,56,3.58,US,1707157978
135,meulaboh,4.1363,96.1285,25.560000000000002,88,90,1.17,ID,1707157978
136,arauca,7.0847,-70.7591,34.210000000000036,44,67,2.42,CO,1707157978
137,tsiombe,-25.3,45.4833,23.970000000000027,91,100,4.61,MG,1707157978
138,namsos,64.4662,11.4957,-1.9699999999999704,86,99,2.57,NO,1707157979
139,lascano,-33.6667,-54.2,32.55000000000001,35,98,5.7,UY,1707157979
140,al abyar,32.19,20.5965,12.760000000000048,78,58,3.81,LY,1707157979
141,egilsstadir,65.2653,-14.3948,-10.049999999999955,79,20,1.03,IS,1707157979
142,udachny,66.4167,112.4,-22.529999999999973,83,100,2.12,RU,1707157978
143,sao felix do xingu,-6.6447,-51.995,26.970000000000027,81,100,1.21,BR,1707157980
144,selfoss,63.9331,-20.9971,-12.069999999999993,80,3,4.49,IS,1707157980
145,puerto baquerizo moreno,-0.9,-89.6,30.55000000000001,66,40,5.14,EC,1707157970
146,road town,18.4167,-64.6167,29.02000000000004,74,75,5.14,VG,1707157980
147,brookings,44.3114,-96.7984,3.430000000000007,97,40,4.12,US,1707157793
148,yunak,38.8142,31.7322,6.300000000000011,65,97,4.66,TR,1707157981
149,okha,53.5739,142.9478,-23.299999999999983,99,42,4.91,RU,1707157943
150,hamilton,39.1834,-84.5333,11.810000000000002,45,0,4.63,US,1707157806
151,ma'an,26.9775,110.7211,1.0500000000000114,98,100,1.32,CN,1707157981
152,anqing,30.5092,117.0506,-0.8999999999999773,91,100,3.16,CN,1707157981
153,bella union,-30.2752,-57.6007,36.29000000000002,37,97,3.1,UY,1707157981
154,flin flon,54.7682,-101.865,-0.08999999999997499,100,100,2.57,CA,1707157981
155,luc-la-primaube,44.3144,2.5355,7.360000000000014,49,0,0.51,FR,1707157982
156,lhasa,29.65,91.1,-2.169999999999959,22,64,2.95,CN,1707157982
157,luderitz,-26.6481,15.1594,20.0,84,0,5.62,NA,1707157982
158,klyuchi,52.2667,79.1667,-7.599999999999966,86,75,4.5,RU,1707157982
159,laiyang,36.9758,120.7136,-4.409999999999968,76,6,3.63,CN,1707157982
160,minas de marcona,-15.2119,-75.1103,24.960000000000036,60,16,4.61,PE,1707157982
161,farshut,26.0549,32.1633,12.660000000000025,38,0,3.16,EG,1707157983
162,geraldton,-28.7667,114.6,17.230000000000018,67,100,6.69,AU,1707157983
163,solnechnyy,50.7214,136.6319,-27.75999999999999,96,24,1.17,RU,1707157983
164,fruitland,38.3221,-75.6202,9.430000000000007,48,0,4.12,US,1707157983
165,mino,34.8269,135.4706,6.57000000000005,82,75,2.57,JP,1707157984
166,fisterra,42.9049,-9.2629,12.640000000000043,79,100,2.55,ES,1707157984
167,aykhal,66.0,111.5,-21.339999999999975,99,100,2.56,RU,1707157984
168,constantia,44.1833,28.65,13.379999999999995,74,100,4.93,RO,1707157984
169,richards bay,-28.783,32.0377,23.55000000000001,88,98,2.02,ZA,1707157984
170,ciudad lazaro cardenas,17.9583,-102.2,28.390000000000043,60,0,4.58,MX,1707157984
171,taichung,24.1469,120.6839,17.28000000000003,83,75,3.6,TW,1707157985
172,kindu,-2.95,25.95,20.850000000000023,99,100,2.0,CD,1707157985
173,east london,-33.0153,27.9116,23.52000000000004,83,0,2.06,ZA,1707157985
174,ambon,-3.6954,128.1814,26.160000000000025,15,75,1.03,ID,1707157985
175,sitka,57.0531,-135.33,3.9399999999999977,87,75,3.09,US,1707157986
176,gazli,40.1333,63.45,6.910000000000025,52,78,3.51,UZ,1707157986
177,berezovyy,51.6667,135.7,-23.049999999999983,97,6,1.09,RU,1707157986
178,codrington,-38.2667,141.9667,12.54000000000002,71,0,3.27,AU,1707157986
179,cole harbour,44.6724,-63.4751,2.2000000000000455,89,100,7.72,CA,1707157986
180,la passe,45.5549,-0.8967,7.210000000000036,85,100,0.67,FR,1707157986
181,mongo,12.1844,18.693,26.310000000000002,16,2,4.03,TD,1707157986
182,alaghsas,17.0187,8.0168,20.939999999999998,13,100,10.8,NE,1707157987
183,vadso,70.0744,29.7487,-4.909999999999968,80,75,4.63,NO,1707157987
184,shingu,33.7333,135.9833,2.2100000000000364,95,10,2.12,JP,1707157987
185,westport,41.1415,-73.3579,8.03000000000003,32,0,4.12,US,1707157793
186,balkh,36.75,67.0,6.580000000000041,60,0,2.77,AF,1707157987
187,zhalantun,48.0,122.7167,-17.799999999999983,93,100,2.04,CN,1707157987
188,aasiaat,68.7098,-52.8699,-30.25999999999999,89,16,3.48,GL,1707157987
189,savelugu,9.6244,-0.8253,30.620000000000005,11,86,3.32,GH,1707157988
190,maturin,9.75,-63.1767,31.910000000000025,66,23,3.6,VE,1707157988
191,phang nga,8.4509,98.5298,26.02000000000004,83,81,0.81,TH,1707157988
192,mil'kovo,55.6078,37.7956,-2.7299999999999613,84,100,2.73,RU,1707157988
193,ta`u,-14.2336,-169.5144,28.220000000000027,79,69,3.62,AS,1707157989
194,taoudenni,22.6783,-3.9836,22.80000000000001,9,96,4.12,ML,1707157989
195,nar'yan-mar,67.6713,53.087,-18.829999999999984,97,100,1.79,RU,1707157989
196,broome,42.2506,-75.833,5.32000000000005,66,0,3.6,US,1707157989
197,georgetown,5.4112,100.3354,28.970000000000027,78,20,3.09,MY,1707157717
198,kendari,-3.945,122.4989,24.08000000000004,93,100,0.94,ID,1707157989
199,sarina,-21.4333,149.2167,23.670000000000016,84,0,1.64,AU,1707157990
200,greymouth,-42.4667,171.2,14.0,91,100,1.77,NZ,1707157990
201,praia da vitoria,38.7333,-27.0667,19.140000000000043,88,40,8.66,PT,1707157968
202,lebu,-37.6167,-73.65,20.060000000000002,70,100,3.36,CL,1707157916
203,jianjiang,26.5497,119.755,9.550000000000011,87,100,4.06,CN,1707157990
204,padang,-0.9492,100.3543,27.03000000000003,86,100,1.6,ID,1707157725
205,rincon,32.296,-81.2354,11.980000000000018,83,100,4.63,US,1707157991
206,mournies,35.4764,24.0092,14.910000000000025,67,20,7.2,GR,1707157991
207,sawang daen din,17.4753,103.4575,23.950000000000045,29,0,1.53,TH,1707157991
208,port douglas,-16.4833,145.4667,26.060000000000002,84,100,1.7,AU,1707157991
209,port mathurin,-19.6833,63.4167,26.29000000000002,67,19,7.46,MU,1707157991
210,umm kaddadah,13.6017,26.6876,18.439999999999998,15,46,6.78,SD,1707157991
211,stanley,54.868,-1.6985,10.160000000000025,79,75,10.29,GB,1707157991
212,cidreira,-30.1811,-50.2056,26.010000000000048,80,32,5.1,BR,1707157992
213,kavaratti,10.5669,72.642,28.010000000000048,73,33,3.13,IN,1707157992
214,saint-pierre,-21.3393,55.4781,23.82000000000005,69,0,4.12,RE,1707157992
215,rongelap,11.1635,166.8941,26.150000000000034,83,96,9.01,MH,1707157992
216,vilhena,-12.7406,-60.1458,27.920000000000016,59,100,0.38,BR,1707157992
217,moires,35.0532,24.8744,12.900000000000034,87,2,2.8,GR,1707157992
218,kapa'a,22.0752,-159.319,22.83000000000004,69,100,11.32,US,1707157979
219,afaahiti,-17.75,-149.2833,23.930000000000007,95,100,10.76,PF,1707157993
220,sarkisla,39.3519,36.4098,0.9800000000000182,93,100,5.22,TR,1707157993
221,yung shue wan,22.2333,114.1167,19.860000000000014,87,100,0.45,HK,1707157993
222,bezopasnoye,45.6483,41.936,4.830000000000041,91,100,9.71,RU,1707157994
223,alesund,62.4723,6.1549,-0.37000000000000455,93,100,2.57,NO,1707157956
224,acapetahua,15.2833,-92.7,33.33000000000004,41,0,4.66,MX,1707157994
225,fort mcmurray,56.7268,-111.381,-12.229999999999961,78,0,4.12,CA,1707157994
226,allapalli,19.4167,80.0667,23.680000000000007,50,0,1.6,IN,1707157994
227,avarua,-21.2078,-159.775,28.03000000000003,83,20,6.17,CK,1707157995
228,prince george,53.9166,-122.753,-6.310000000000002,86,100,2.57,CA,1707157921
229,fuding,27.3273,120.214,8.260000000000048,92,100,0.71,CN,1707157995
230,yaiza,28.9633,-13.7631,18.870000000000005,60,0,5.14,ES,1707157995
231,nogliki,51.8333,143.1667,-21.47999999999999,99,47,3.58,RU,1707157995
232,serowe,-22.3833,26.7167,28.08000000000004,30,94,2.21,BW,1707157995
233,ormara,25.2088,64.6357,22.189999999999998,64,34,5.67,PK,1707157996
234,kayenta,36.7278,-110.2546,8.670000000000016,42,100,3.59,US,1707157996
235,touros,-5.1989,-35.4608,29.640000000000043,66,43,7.01,BR,1707157996
236,ushuaia,-54.8,-68.3,14.810000000000002,51,90,4.63,AR,1707157697
237,muang phonsavan,19.45,103.2167,13.010000000000048,43,0,0.25,LA,1707157996
238,labrador city,52.9463,-66.9114,-13.049999999999955,47,20,2.06,CA,1707157996
239,masterton,-40.9597,175.6575,12.710000000000036,73,12,1.62,NZ,1707157905
240,darwin,-12.4611,130.8418,27.99000000000001,88,40,4.12,AU,1707157969
241,takoradi,4.8845,-1.7554,27.24000000000001,82,0,3.44,GH,1707157997
242,nadym,65.5333,72.5167,-24.659999999999968,99,69,4.44,RU,1707157997
243,hinton,53.4001,-117.5857,-0.589999999999975,84,99,1.17,CA,1707157997
244,hermanus,-34.4187,19.2345,21.560000000000002,83,0,3.82,ZA,1707157997
245,kotka,60.4664,26.9458,-4.409999999999968,96,91,3.81,FI,1707157997
246,wedgefield,28.4878,-81.0773,19.450000000000045,67,100,2.76,US,1707157998
247,carnarvon,-24.8667,113.6333,27.650000000000034,37,11,8.88,AU,1707157998
248,el naranjo,21.4667,-98.6,26.100000000000023,33,0,1.74,MX,1707157998
249,anadyr,64.75,177.4833,-26.71999999999997,76,40,9.0,RU,1707157987
250,isiro,2.7739,27.616,22.49000000000001,48,69,0.83,CD,1707157998
251,fochville,-26.4886,27.4939,21.810000000000002,30,0,1.26,ZA,1707157998
252,celestun,20.8667,-90.4,24.160000000000025,53,0,10.36,MX,1707157999
253,kalengwa,-13.4659,25.0027,19.140000000000043,95,92,1.91,ZM,1707157999
254,ipameri,-17.7219,-48.1597,25.860000000000014,69,98,2.2,BR,1707157999
255,annigeri,15.4333,75.4333,24.840000000000032,38,0,3.06,IN,1707157807
256,holualoa,19.6228,-155.9522,23.210000000000036,71,20,3.6,US,1707158000
257,jorpeland,59.0225,6.0408,2.8600000000000136,74,100,2.21,NO,1707158000
258,beloyarskiy,63.7119,66.6722,-24.43999999999997,100,100,1.79,RU,1707158000
259,nizhnesortymskiy,62.4397,71.7603,-16.659999999999968,98,100,6.22,RU,1707158000
260,komotini,41.1228,25.3964,8.360000000000014,77,7,0.35,GR,1707158001
261,al kharijah,25.4514,30.5464,12.53000000000003,40,0,3.21,EG,1707158001
262,bridgewater,44.3835,-64.5155,1.170000000000016,84,95,7.2,CA,1707158001
263,manokwari,-0.8667,134.0833,25.720000000000027,84,100,2.58,ID,1707158001
264,sidi akkacha,36.4647,1.3026,19.160000000000025,58,25,2.58,DZ,1707158001
265,uturoa,-16.7333,-151.4333,27.810000000000002,83,100,9.63,PF,1707158001
266,mount gambier,-37.8333,140.7667,10.170000000000016,81,7,1.78,AU,1707158002
267,obock,12.25,43.0833,20.970000000000027,71,0,1.51,DJ,1707158002
268,pemangkat,1.1667,108.9667,26.160000000000025,87,73,2.32,ID,1707158002
269,severo-yeniseyskiy,60.3725,93.0408,-8.009999999999991,87,85,4.92,RU,1707158002
270,kingston,17.997,-76.7936,28.980000000000018,84,75,5.14,JM,1707158002
271,santa ana,33.7456,-117.8678,14.510000000000048,93,100,4.12,US,1707158003
272,arraial do cabo,-22.9661,-42.0278,31.980000000000018,70,0,6.17,BR,1707158003
273,buta,2.7858,24.73,28.480000000000018,35,89,1.87,CD,1707158003
274,choibalsan,48.0667,114.5,-24.93999999999997,96,62,2.79,MN,1707158004
275,papao,-17.75,-149.55,24.82000000000005,89,100,11.02,PF,1707158004
276,piacabucu,-10.4056,-36.4344,29.430000000000007,66,15,5.23,BR,1707158005
277,hopelchen,19.7667,-89.85,27.80000000000001,29,0,5.28,MX,1707158005
278,magadan,59.5667,150.8,-21.92999999999998,76,100,4.08,RU,1707158006
279,polasara,19.7,84.8167,21.100000000000023,91,0,0.98,IN,1707158006
280,phalaborwa,-23.943,31.1411,28.600000000000023,69,36,2.6,ZA,1707158006
281,kriva palanka,42.2019,22.3319,8.180000000000007,70,7,0.78,MK,1707158007
282,lihue,21.9789,-159.3672,22.420000000000016,69,100,11.32,US,1707158007
283,ganj dundwara,27.7333,78.95,12.560000000000002,93,10,2.57,IN,1707158007
284,baruun-urt,46.6806,113.2792,-22.21999999999997,93,82,0.9,MN,1707158008
285,saipan,15.1355,145.701,24.390000000000043,73,40,4.12,MP,1707158008
286,remire-montjoly,4.9167,-52.2667,31.02000000000004,70,40,6.17,GF,1707158008
287,mount isa,-20.7333,139.5,25.870000000000005,94,100,1.03,AU,1707158008
288,prince albert,53.2001,-105.7677,-1.0299999999999727,86,100,6.69,CA,1707158008
289,fort bragg,35.139,-79.006,14.550000000000011,39,20,5.66,US,1707158009
290,cooma,-36.2333,149.1333,16.02000000000004,98,100,1.26,AU,1707158009
291,keflavik,64.0049,-22.5624,-5.0499999999999545,79,40,12.35,IS,1707158009
292,soroti,1.7146,33.6111,24.140000000000043,52,12,1.99,UG,1707158009
293,lashkar gah,31.5938,64.3716,8.950000000000045,24,0,3.79,AF,1707158009
294,berdigestyakh,62.0989,126.6992,-37.97999999999999,100,69,0.79,RU,1707158010
295,west island,-12.1568,96.8225,27.99000000000001,83,75,3.09,CC,1707158010
296,mahina,-17.5065,-149.489,24.870000000000005,94,100,7.2,PF,1707158010
297,reggane,26.7158,0.1714,18.620000000000005,18,41,4.2,DZ,1707158010
298,general pinedo,-27.3167,-61.2833,42.22000000000003,17,95,6.64,AR,1707158010
299,moshi,-3.35,37.3333,23.32000000000005,63,3,2.87,TZ,1707158010
300,san patricio,28.017,-97.5169,19.970000000000027,54,70,7.97,US,1707158011
301,majene,-3.5403,118.9707,25.180000000000007,85,100,1.39,ID,1707158011
302,bandrele,-12.9067,45.1914,27.860000000000014,83,0,1.54,YT,1707158011
303,shimoda,34.6667,138.95,5.060000000000002,87,100,7.34,JP,1707158011
304,kerman,30.2832,57.0788,3.920000000000016,19,0,2.06,IR,1707158011
305,san antonio de pale,-1.4014,5.6325,27.57000000000005,76,67,2.0,GQ,1707158012
306,santa ana de yacuma,-13.75,-65.4333,31.970000000000027,62,75,0.0,BO,1707158012
307,tottori,35.5,134.2333,5.520000000000039,79,100,5.1,JP,1707158012
308,whitehorse,60.7161,-135.0538,-21.569999999999965,77,75,2.57,CA,1707158012
309,filadelfia,39.9523,-75.1638,9.050000000000011,44,20,3.6,US,1707157862
310,pisco,-13.7,-76.2167,27.03000000000003,65,0,5.66,PE,1707158012
311,enewetak,11.3474,162.3373,26.32000000000005,75,99,9.52,MH,1707158012
312,kannabecho-yahiro,34.5333,133.3833,3.7700000000000387,88,99,2.09,JP,1707158013
313,quelimane,-17.8786,36.8883,25.670000000000016,82,0,1.94,MZ,1707158013
314,sidi ifni,29.3797,-10.173,22.860000000000014,54,8,4.55,MA,1707158013
315,tofol,5.3248,163.0078,27.82000000000005,66,100,7.54,FM,1707158013
316,mangrol,21.1167,70.1167,22.620000000000005,80,5,4.4,IN,1707158014
317,uige,-7.6087,15.0613,19.910000000000025,95,100,0.5,AO,1707158014
318,alice springs,-23.7,133.8833,26.75,39,40,8.23,AU,1707158014
319,chegdomyn,51.1167,133.0167,-30.44999999999999,100,99,0.67,RU,1707158014
320,castelfranco emilia,44.5958,11.052,10.580000000000041,87,58,1.03,IT,1707158014
321,zelenogorskiy,55.0333,87.0,-13.569999999999993,99,95,1.89,RU,1707158014
322,kiunga,-6.1219,141.2906,23.07000000000005,100,100,0.94,PG,1707158014
323,castillos,-34.1667,-53.8333,25.78000000000003,52,7,5.61,UY,1707158015
324,san fernando,15.0286,120.6898,24.850000000000023,92,17,1.85,PH,1707157743
325,kone,-21.0595,164.8658,25.200000000000045,98,100,0.82,NC,1707158015
326,general mosconi,-23.1851,-62.303,41.5,18,94,5.42,AR,1707158015
327,bajil,15.0584,43.2851,25.78000000000003,74,47,2.63,YE,1707158015
328,tura,25.5198,90.2201,16.32000000000005,55,100,0.66,IN,1707158016
329,macouria,4.9167,-52.3667,30.970000000000027,70,40,6.17,GF,1707158016
330,akureyri,65.6835,-18.0878,-7.039999999999964,73,75,6.17,IS,1707158016
331,limassol,34.675,33.0333,15.04000000000002,58,0,4.12,CY,1707158016
332,nemuro,43.3236,145.575,-6.979999999999961,74,99,6.82,JP,1707158016
333,micheweni,-4.9667,39.8333,28.27000000000004,79,11,6.0,TZ,1707158016
334,tabatinga,-4.2525,-69.9381,30.05000000000001,78,40,1.54,BR,1707158016
335,alta gracia,-31.6529,-64.4283,35.31,30,99,7.29,AR,1707158017
336,ziro,27.6333,93.8333,2.9500000000000455,97,100,0.54,IN,1707158017
337,ronne,55.1009,14.7066,2.9500000000000455,87,100,3.09,DK,1707158017
338,ranot,7.7777,100.3213,26.460000000000036,78,96,1.79,TH,1707158017
339,preobrazheniye,42.9019,133.9064,-9.199999999999989,69,100,2.35,RU,1707158017
340,borba,-4.3878,-59.5939,32.18000000000001,60,77,1.26,BR,1707158017
341,zheleznogorsk,52.331,35.3711,-3.829999999999984,89,98,4.09,RU,1707158017
342,flying fish cove,-10.4217,105.6791,23.82000000000005,94,100,3.09,CX,1707158018
343,piriapolis,-34.8682,-55.2744,29.090000000000032,53,75,7.72,UY,1707157915
344,mana,5.6592,-53.7767,28.49000000000001,74,100,5.01,GF,1707158018
345,kulhudhuffushi,6.6221,73.07,27.78000000000003,79,10,5.95,MV,1707158018
346,beledweyne,4.7358,45.2036,29.129999999999995,45,60,8.48,SO,1707158018
347,port hedland,-20.3167,118.5667,27.03000000000003,89,40,3.6,AU,1707157954
348,grantsville,40.5999,-112.4644,8.840000000000032,57,92,7.69,US,1707158019
349,mezhdurechenskiy,59.6,65.9333,-7.329999999999984,97,100,0.8,RU,1707158024
350,pathein,16.7833,94.7333,20.900000000000034,71,5,3.92,MM,1707158024
351,zapata,26.9073,-99.2714,21.060000000000002,32,0,6.69,US,1707158024
352,debre sina,9.85,39.7667,11.090000000000032,83,46,0.69,ET,1707158025
353,rizhao,35.4275,119.4553,-6.1299999999999955,84,7,3.02,CN,1707158025
354,serhetabat,35.2799,62.3438,7.400000000000034,35,0,3.44,TM,1707158025
355,axim,4.8699,-2.2405,27.340000000000032,79,2,3.54,GH,1707158025
356,vorkuta,67.5,64.0,-24.19999999999999,99,16,1.94,RU,1707158025
357,olyokminsk,60.3736,120.4264,-26.299999999999983,98,93,0.82,RU,1707158025
358,badger,64.8,-147.5333,-23.129999999999967,78,20,0.0,US,1707158025
359,newcastle,-32.9272,151.7765,24.32000000000005,93,100,2.57,AU,1707158025
360,mananara,-16.1667,49.7667,24.99000000000001,90,98,1.39,MG,1707158026
361,fortuna,40.5982,-124.1573,10.75,96,100,3.09,US,1707158026
362,barguzin,53.6167,109.6167,-18.409999999999968,87,58,1.2,RU,1707158026
363,outjo,-20.1167,16.15,23.32000000000005,60,95,1.35,NA,1707158026
364,kourou,5.1552,-52.6478,31.03000000000003,69,72,4.61,GF,1707157806
365,namibe,-15.1961,12.1522,25.410000000000025,79,100,4.62,AO,1707158026
366,viana do castelo,41.6932,-8.8329,13.830000000000041,77,100,2.76,PT,1707157829
367,katabu,-4.9333,122.5167,24.78000000000003,92,100,1.35,ID,1707158026
368,dali,25.7,100.1833,6.810000000000002,84,93,2.36,CN,1707158027
369,candido de abreu,-24.5669,-51.3333,31.620000000000005,42,100,1.04,BR,1707158027
370,ibshaway,29.358,30.6814,14.240000000000009,58,5,3.16,EG,1707158027
371,quadrivio,45.0297,9.2223,12.270000000000039,82,15,1.13,IT,1707158027
372,severnoye,56.3491,78.3619,-4.449999999999989,93,100,7.6,RU,1707158027
373,sangmelima,2.9333,11.9833,25.180000000000007,33,5,1.17,CM,1707158027
374,tanout,14.9709,8.8879,18.180000000000007,14,36,7.52,NE,1707158032
375,itoman,26.1247,127.6694,17.010000000000048,72,100,7.2,JP,1707158032
376,benghazi,32.1167,20.0667,16.430000000000007,72,9,4.74,LY,1707158032
377,sao joao da barra,-21.6403,-41.0511,31.05000000000001,79,100,4.92,BR,1707158032
378,pucon,-39.2822,-71.9543,26.04000000000002,25,54,1.18,CL,1707158032
379,sinop,41.7711,34.8709,5.920000000000016,81,100,5.55,TR,1707158032
380,barakani,-12.1356,44.4317,28.04000000000002,77,96,2.27,KM,1707158033
381,bamboo flat,11.7,92.7167,24.05000000000001,88,2,1.03,IN,1707158033
382,bafra,41.5678,35.9069,13.170000000000016,63,100,5.07,TR,1707158033
383,qamdo,31.1667,97.2333,-5.229999999999961,36,100,3.04,CN,1707158033
384,levuka,50.1834,-105.4011,-0.0999999999999659,86,100,3.09,CA,1707158033
385,hakui,36.8833,136.7833,2.340000000000032,92,76,1.28,JP,1707158033
386,altania,-23.8744,-53.9017,31.900000000000034,41,96,0.19,BR,1707158033
387,pinos,22.3,-101.5667,15.82000000000005,13,0,6.22,MX,1707158033
388,roma,43.2128,-75.4557,5.210000000000036,44,0,4.63,US,1707158034
389,pangody,65.85,74.4859,-25.329999999999984,100,79,3.63,RU,1707158034
390,turabah,21.2141,41.6331,17.27000000000004,59,50,1.96,SA,1707158034
391,pacific grove,36.6177,-121.9166,11.550000000000011,92,100,3.6,US,1707158034
392,wynyard,-41.0,145.7167,10.379999999999995,75,0,4.16,AU,1707158034
393,morondava,-20.2833,44.2833,27.82000000000005,78,8,1.98,MG,1707158034
394,bida,9.0833,6.0167,29.660000000000025,14,28,2.02,NG,1707158035
395,chonchi,-42.6128,-73.8092,23.950000000000045,48,36,3.52,CL,1707157969
396,kibre mengist,5.8833,38.9833,19.74000000000001,52,100,0.8,ET,1707158035
397,crane,31.3974,-102.3501,12.850000000000023,46,0,3.12,US,1707158035
398,guantanamo,20.1444,-75.2092,29.760000000000048,59,40,7.38,CU,1707158035
399,rimouski,48.4488,-68.524,-2.8999999999999773,90,100,5.51,CA,1707158035
400,mundra,22.85,69.7333,21.400000000000034,73,4,3.59,IN,1707158035
401,palopo,-2.9996,120.1921,24.82000000000005,92,100,1.39,ID,1707158035
402,qui nhon,13.7667,109.2333,22.100000000000023,90,7,1.67,VN,1707158036
403,inhapim,-19.5492,-42.12,29.33000000000004,75,100,0.7,BR,1707158036
404,zakamensk,50.3741,103.2863,-20.899999999999977,99,58,1.58,RU,1707158036
405,san mariano,7.5,126.0,20.710000000000036,85,97,1.27,PH,1707158036
406,kyabe,9.4515,18.9449,28.960000000000036,17,29,2.6,TD,1707158036
407,lata,40.1629,-8.3327,15.450000000000045,87,100,0.82,PT,1707158036
408,neryungri,56.6709,124.6491,-29.46999999999997,91,69,0.74,RU,1707158036
409,zapatoca,6.8153,-73.2677,21.420000000000016,62,84,2.29,CO,1707158037
410,astrakhan,46.3497,48.0408,1.9300000000000068,100,75,5.0,RU,1707158037
411,guerrero negro,27.9769,-114.0611,18.53000000000003,55,99,2.9,MX,1707158037
412,campos novos,-27.4017,-51.225,29.200000000000045,44,100,2.66,BR,1707158037
413,chui,-33.6971,-53.4616,25.460000000000036,55,6,5.41,UY,1707158037
414,olinda,-8.0089,-34.8553,30.850000000000023,66,40,4.63,BR,1707158037
415,chernyshevskiy,63.0128,112.4714,-21.96999999999997,100,100,0.99,RU,1707158037
416,alofi,-19.0595,-169.9187,24.939999999999998,88,58,2.06,NU,1707158037
417,lautoka,-17.6167,177.4667,24.920000000000016,94,40,1.03,FJ,1707158038
418,murud,18.3258,72.965,23.710000000000036,70,0,2.37,IN,1707158038
419,suez,29.9737,32.5263,15.900000000000034,60,88,3.86,EG,1707158038
420,suzun,53.7841,82.3116,-9.829999999999984,94,82,2.26,RU,1707158038
421,palangkaraya,-2.2,113.8333,24.180000000000007,95,100,0.68,ID,1707158038
422,rawlins,41.7911,-107.2387,4.640000000000043,56,0,6.69,US,1707157956
423,nenjiang,49.1833,125.2167,-25.129999999999967,100,87,0.85,CN,1707158038
424,briviesca,42.5499,-3.3232,11.080000000000041,62,100,1.22,ES,1707158038
425,hoi an,15.8794,108.335,24.980000000000018,94,15,2.42,VN,1707158038
426,daru,-9.0763,143.2092,25.890000000000043,90,100,2.96,PG,1707158039
427,camana,-16.6228,-72.7111,26.060000000000002,76,17,3.5,PE,1707158039
428,zemio,5.0314,25.1361,26.110000000000014,28,48,2.1,CF,1707158039
429,mandera,3.9366,41.867,32.34000000000003,22,65,5.72,KE,1707158039
430,howrah,22.5892,88.3103,21.0,83,0,3.09,IN,1707158024
431,nizhneudinsk,54.9076,99.0276,-11.879999999999995,93,96,1.35,RU,1707158039
432,mahenge,-8.6833,36.7167,19.650000000000034,95,99,1.09,TZ,1707158039
433,gamay,12.3854,125.2979,24.620000000000005,92,100,3.78,PH,1707158039
434,kristiansund,63.1115,7.732,-1.6399999999999864,93,100,2.06,NO,1707157958
435,haiku-pauwela,20.9219,-156.3051,21.129999999999995,75,20,8.94,US,1707158005
436,caaguazu,-25.45,-56.0167,33.23000000000002,39,100,3.77,PY,1707158039
437,trino,45.1921,8.2961,12.850000000000023,65,13,2.33,IT,1707158040
438,tamanrasset,22.785,5.5228,14.950000000000045,11,0,3.6,DZ,1707157931
439,trinidad,-14.8333,-64.9,32.99000000000001,58,40,2.06,BO,1707158040
440,al wajh,26.2455,36.4525,20.970000000000027,37,0,6.69,SA,1707158040
441,katsuura,35.1333,140.3,5.760000000000048,96,100,8.51,JP,1707158040
442,coquimbo,-29.9533,-71.3436,22.850000000000023,68,20,7.2,CL,1707157987
443,syevyerodonets'k,48.9483,38.4917,1.3000000000000114,96,100,5.29,UA,1707158040
444,puerto aysen,-45.4,-72.7,21.02000000000004,40,6,3.15,CL,1707158040
445,linxia chengguanzhen,35.6003,103.2064,-5.4599999999999795,88,100,1.72,CN,1707158040
446,vilyuysk,63.7553,121.6247,-34.99999999999997,100,89,0.89,RU,1707158040
447,chibougamau,49.9168,-74.3659,-6.2099999999999795,73,0,1.54,CA,1707158040
448,ghadamis,30.1337,9.5007,14.32000000000005,39,0,3.29,LY,1707158041
449,kailua-kona,19.6406,-155.9956,25.28000000000003,70,20,3.6,US,1707158041
450,chisec,15.8167,-90.2833,30.129999999999995,94,99,0.48,GT,1707158041
451,opuwo,-18.0607,13.84,21.910000000000025,85,100,0.89,NA,1707158041
452,nago,26.5881,127.9761,16.24000000000001,69,15,5.8,JP,1707158041
453,nasiriyah,31.0521,46.261,16.03000000000003,32,99,3.3,IQ,1707158042
454,kadod,21.2167,73.2333,23.930000000000007,57,0,1.99,IN,1707158042
455,kalmunai,7.4167,81.8167,24.900000000000034,83,56,3.78,LK,1707158042
456,santo antonio do ica,-3.1022,-67.9397,29.060000000000002,68,100,1.49,BR,1707158042
457,kerikeri,-35.2268,173.9474,13.840000000000032,93,5,1.06,NZ,1707158043
458,nieuw amsterdam,5.8833,-55.0833,30.010000000000048,70,20,5.14,SR,1707158043
459,toledo,39.8333,-4.0,11.840000000000032,55,100,1.53,ES,1707158043
460,oranjemund,-28.55,16.4333,20.460000000000036,80,4,4.78,NA,1707158043
461,veinticinco de mayo,-35.4323,-60.1727,39.120000000000005,23,99,2.97,AR,1707158043
462,acapulco de juarez,16.8634,-99.8901,29.900000000000034,54,0,2.06,MX,1707157766
463,hasaki,35.7333,140.8333,2.9399999999999977,73,100,11.31,JP,1707158043
464,havre,49.5833,0.3333,9.220000000000027,93,100,6.69,FR,1707158044
465,boguchany,58.3814,97.4531,-5.079999999999984,89,74,4.02,RU,1707157959
466,cadale,2.7603,46.3222,27.090000000000032,78,100,8.01,SO,1707158044
467,namdrik,5.5994,168.1028,27.83000000000004,75,100,7.62,MH,1707158044
468,saudarkrokur,65.7461,-19.6394,-8.239999999999952,83,100,4.96,IS,1707158044
469,lerma,42.0261,-3.7598,10.310000000000002,62,100,1.04,ES,1707158045
470,dolores,-36.3132,-57.6792,28.910000000000025,41,97,6.37,AR,1707158045
471,al wafrah,28.6392,47.9306,13.010000000000048,48,0,1.53,KW,1707158045
472,rumuruti,0.267,36.5389,16.920000000000016,79,79,4.29,KE,1707158045
473,puerto deseado,-47.7503,-65.8938,18.850000000000023,48,0,8.13,AR,1707158045
474,dunedin,-45.8742,170.5036,16.960000000000036,66,100,1.73,NZ,1707157871
475,prince rupert,54.3161,-130.3201,3.830000000000041,100,0,9.77,CA,1707158045
476,jawf al maqbabah,13.8378,45.8349,19.460000000000036,82,53,0.74,YE,1707158046
477,villa dolores,-31.9459,-65.1896,38.33000000000004,26,100,6.71,AR,1707158046
478,pachperwa,27.5167,82.65,13.53000000000003,92,0,3.31,IN,1707158046
479,oamaru,-45.0784,170.9801,20.77000000000004,44,100,4.16,NZ,1707158046
480,el calafate,-50.3408,-72.2768,14.520000000000039,45,100,6.76,AR,1707158046
481,ponta pora,-22.5361,-55.7256,32.950000000000045,40,40,4.63,BR,1707158046
482,ahmadpur sial,30.6754,71.7483,12.210000000000036,52,0,2.41,PK,1707158046
483,thunder bay,48.4001,-89.3168,3.990000000000009,81,100,2.06,CA,1707157781
484,cabo san lucas,22.8909,-109.9124,28.670000000000016,45,0,1.03,MX,1707157918
485,cova figueira,14.8905,-24.2934,22.129999999999995,61,0,4.07,CV,1707158046
486,valenca,-13.3703,-39.0731,27.950000000000045,76,100,2.59,BR,1707158018
487,al ghayzah,16.2079,52.176,24.0,61,2,3.52,YE,1707158047
488,nova sintra,14.8667,-24.7167,21.400000000000034,67,0,4.67,CV,1707158047
489,inongo,-1.95,18.2667,22.920000000000016,92,100,2.64,CD,1707158047
490,gangelt,50.9833,6.0,9.170000000000016,79,75,10.29,DE,1707158047
491,bealanana,-14.55,48.7333,19.930000000000007,96,100,0.82,MG,1707158048
492,rawai,7.7797,98.3253,26.060000000000002,76,17,2.78,TH,1707158048
493,howard springs,-12.497,131.047,27.950000000000045,95,84,2.7,AU,1707158048
494,peniche,39.3558,-9.3811,15.720000000000027,86,100,1.11,PT,1707157813
495,mata de sao joao,-12.5303,-38.2992,29.860000000000014,76,62,2.98,BR,1707158048
496,hengchun,22.0042,120.7439,20.670000000000016,82,16,9.73,TW,1707158048
497,usinsk,65.9939,57.5281,-28.849999999999966,100,62,0.45,RU,1707158049
498,pagar alam,-4.0167,103.2667,20.660000000000025,98,100,1.12,ID,1707158049
499,manadhoo,5.7667,73.3833,27.78000000000003,76,5,6.81,MV,1707158049
500,gulf shores,30.246,-87.7008,11.860000000000014,73,100,5.14,US,1707158049
501,namtsy,62.7161,129.6658,-42.62999999999997,100,73,0.27,RU,1707158049
502,sumenep,-7.0167,113.8667,26.0,87,91,2.92,ID,1707158049
503,willemstad,12.1084,-68.9335,30.950000000000045,79,0,3.6,CW,1707157882
504,buritizeiro,-17.3511,-44.9622,28.560000000000002,61,99,1.35,BR,1707158050
505,nizhneangarsk,55.7833,109.55,-19.43999999999997,91,100,2.24,RU,1707158050
506,massawa,15.6097,39.45,25.03000000000003,69,100,3.4,ER,1707158050
507,nguigmi,14.2495,13.1092,21.480000000000018,21,98,6.29,NE,1707158050
508,birjand,32.8663,59.2211,-0.7399999999999523,24,0,3.09,IR,1707158050
509,jinghong,21.991,100.7341,14.520000000000039,57,0,1.29,CN,1707158051
510,chul'man,56.8479,124.9104,-31.809999999999974,99,80,0.7,RU,1707158051
511,intendente alvear,-35.2338,-63.592,40.410000000000025,20,15,4.29,AR,1707158051
512,impfondo,1.6381,18.0667,27.52000000000004,34,87,0.57,CG,1707158051
513,cide,41.8921,33.0044,11.220000000000027,80,100,6.1,TR,1707158051
514,sungai raya,0.7,108.9,25.689999999999998,91,71,2.18,ID,1707158051
515,tanabi,-20.6264,-49.6492,29.260000000000048,45,100,2.61,BR,1707158052
516,nouadhibou,20.931,-17.0347,28.99000000000001,17,0,2.06,MR,1707158052
517,paulo afonso,-9.4061,-38.2147,37.120000000000005,25,28,5.48,BR,1707158052
518,zarand,30.8127,56.564,5.020000000000039,20,0,1.27,IR,1707158052
519,palmer,42.1584,-72.3287,5.78000000000003,26,0,9.26,US,1707158052
520,inarajan village,13.2736,144.7484,26.54000000000002,72,100,8.68,GU,1707158052
521,floro,61.5996,5.0328,-1.0199999999999818,93,75,3.09,NO,1707158053
522,nova vicosa,-17.8919,-39.3719,28.82000000000005,67,61,4.83,BR,1707158019
523,sinabang,2.4803,96.3801,27.07000000000005,81,100,1.42,ID,1707158053
524,junin de los andes,-39.9504,-71.0694,22.640000000000043,20,100,6.3,AR,1707158053
525,puerto lleras,3.0223,-73.4044,29.660000000000025,67,100,2.59,CO,1707158053
526,okhotsk,59.3833,143.3,-23.21999999999997,80,9,6.08,RU,1707158045
527,harstad,68.799,16.5293,-5.2099999999999795,93,60,9.39,NO,1707158053
528,coahuayana de hidalgo,18.7,-103.6583,31.840000000000032,38,5,2.89,MX,1707158054
529,tchintabaraden,15.8969,5.7985,20.390000000000043,11,94,6.42,NE,1707158054
530,villa regina,-39.1,-67.0667,34.43000000000001,15,99,1.79,AR,1707158054
531,souillac,-20.5167,57.5167,25.210000000000036,69,20,1.54,MU,1707158054
532,alto barinas,8.5931,-70.2261,31.879999999999995,51,67,2.74,VE,1707158054
533,lorengau,-2.0226,147.2712,27.400000000000034,82,99,2.99,PG,1707158054
534,namie,37.4833,141.0,1.5100000000000477,92,100,7.76,JP,1707158054
535,nicoya,10.1483,-85.452,31.879999999999995,50,80,3.23,CR,1707158054
536,sines,37.9562,-8.8698,15.720000000000027,82,100,0.45,PT,1707158055
537,andergrove,-21.0833,149.1833,24.560000000000002,80,2,1.88,AU,1707158055
538,yugorsk,61.3133,63.3319,-17.279999999999973,92,100,2.32,RU,1707158055
539,ada,43.4166,-116.1262,10.170000000000016,61,40,6.69,US,1707158007
540,wajir,1.7471,40.0573,31.980000000000018,43,20,2.06,KE,1707158055
541,saint-leu,-21.15,55.2833,23.480000000000018,69,87,1.93,RE,1707158055
542,timimoun,29.2639,0.231,18.210000000000036,29,0,4.12,DZ,1707158055
543,san jose del guaviare,2.5729,-72.6459,27.49000000000001,74,100,2.0,CO,1707158056
544,lerwick,60.1545,-1.1494,4.0,68,99,7.19,GB,1707158056
545,princeville,45.7668,-61.2985,3.2000000000000455,87,100,5.66,CA,1707158056
546,bijie,27.3125,105.2942,1.1400000000000432,96,100,2.42,CN,1707158056
547,tralee,52.2704,-9.7026,11.140000000000043,87,40,8.23,IE,1707158056
548,canal winchester,39.8428,-82.8046,10.360000000000014,56,0,4.63,US,1707158056
549,leogane,18.5108,-72.6339,32.110000000000014,58,4,5.25,HT,1707158056
550,dedougou,12.4667,-3.4667,27.620000000000005,10,100,3.75,BF,1707158057
551,butembo,0.15,29.2833,15.370000000000005,84,68,1.26,CD,1707158057
552,senanga,-16.1167,23.2667,24.52000000000004,65,77,1.53,ZM,1707158057
553,kruisfontein,-34.0033,24.7314,20.49000000000001,84,0,1.79,ZA,1707158057
554,cabanas,22.9758,-82.9219,24.470000000000027,48,5,12.49,CU,1707158057
555,decorah,43.3033,-91.7857,8.510000000000048,49,0,0.0,US,1707158057
556,birobidzhan,48.8,132.95,-27.319999999999965,99,30,1.16,RU,1707158057
557,newman,37.3138,-121.0208,16.25,88,100,1.34,US,1707158058
558,lloydminster,53.2835,-110.0016,-6.8799999999999955,86,100,2.57,CA,1707157923
559,xunchang,28.4543,104.715,6.640000000000043,85,100,0.88,CN,1707158058
560,smirnykh,49.75,142.8333,-20.46999999999997,92,5,2.31,RU,1707158058
561,mayma,52.0197,85.9114,-9.370000000000005,95,66,2.24,RU,1707158058
562,missoula,47.0166,-113.8009,-1.6099999999999568,80,100,0.86,US,1707157803
563,ariquemes,-9.9133,-63.0408,33.04000000000002,50,63,0.39,BR,1707158058
564,bonthe,7.5264,-12.505,27.55000000000001,75,0,4.68,SL,1707158058
565,kabin buri,13.9511,101.7177,25.28000000000003,69,60,2.26,TH,1707158059
566,zaozersk,69.4005,32.4476,-18.419999999999987,99,82,0.61,RU,1707158001
567,hassi messaoud,31.6804,6.0729,15.920000000000016,33,0,1.54,DZ,1707158059
568,pitanga,-24.7572,-51.7614,20.360000000000014,88,100,4.55,BR,1707158059
569,le mars,42.7942,-96.1656,4.2900000000000205,100,0,0.0,US,1707158059
570,narrabri,-30.3167,149.7833,28.07000000000005,57,83,1.79,AU,1707158059
571,alice,27.7523,-98.0697,19.160000000000025,45,0,10.29,US,1707158060
572,shalkar,47.8288,59.6258,-0.40999999999996817,92,100,4.92,KZ,1707158060
573,shache,38.4167,77.2406,-3.2799999999999727,76,63,0.38,CN,1707158060
574,matsuyama,33.8392,132.7657,4.550000000000011,81,15,3.75,JP,1707157806
575,tahoua,14.8888,5.2692,24.99000000000001,8,91,7.2,NE,1707158060
576,yazoo city,32.8551,-90.4056,12.170000000000016,57,0,5.32,US,1707158060
577,bachatskiy,54.2927,86.1285,-6.779999999999973,85,100,3.44,RU,1707158061
578,nuuk,64.1835,-51.7216,-11.659999999999968,72,75,6.69,GL,1707157841
579,tasnad,47.4833,22.5833,10.770000000000039,72,100,8.76,RO,1707158061
580,chuguyevka,44.1653,133.8633,-22.50999999999999,100,100,1.19,RU,1707158061
581,vallegrande,-18.4897,-64.1069,19.310000000000002,65,100,1.33,BO,1707158061
582,penal,10.1667,-61.4667,33.450000000000045,65,99,6.54,TT,1707158061
583,al burayqah,30.4062,19.5739,16.78000000000003,70,11,4.98,LY,1707158061
584,poplar bluff,36.757,-90.3929,13.270000000000039,44,0,5.14,US,1707157977
585,tandag,9.0783,126.1986,24.08000000000004,88,100,1.61,PH,1707158062
586,alzamay,55.5562,98.6644,-9.569999999999993,93,100,1.54,RU,1707158062
587,tobelo,1.7284,128.0095,25.54000000000002,85,100,2.75,ID,1707158062
588,balqash,46.8481,74.995,-5.92999999999995,93,100,4.26,KZ,1707158062
589,serres,41.0856,23.5497,14.650000000000034,49,3,1.67,GR,1707158062
590,ivdel',60.6911,60.4206,-17.75999999999999,98,100,1.79,RU,1707158063
591,olenegorsk,68.15,33.3,-28.149999999999977,100,79,0.55,RU,1707158063
592,pauini,-7.7136,-66.9764,28.060000000000002,82,100,0.13,BR,1707158063
593,miyang,24.4042,103.4428,9.890000000000043,70,0,1.69,CN,1707158063
594,zaraza,9.3503,-65.3245,38.129999999999995,28,79,2.71,VE,1707158063
595,lazaro cardenas,17.9583,-102.2,28.390000000000043,60,0,4.58,MX,1707158063
596,churachandpur,24.3333,93.6667,11.629999999999995,74,100,0.46,IN,1707158063
597,mattarello,46.0079,11.1285,11.75,47,80,1.57,IT,1707157810
598,hefei,31.8639,117.2808,-2.9899999999999523,93,100,2.0,CN,1707158064
599,tabuk,17.4189,121.4443,21.640000000000043,94,70,0.67,PH,1707158064
600,revda,56.801,59.9303,-3.7799999999999727,88,61,4.35,RU,1707158064
601,songyang,34.4553,113.0281,-5.199999999999989,95,23,0.95,CN,1707158064
